{
  "centers": [
    {
      "LocationPage": {
        "ROWID": "261",
        "NAME": "Boca Raton",
        "ADDRESS": "331 E Yamato Rd",
        "STATE": "FL",
        "CITY": "Boca Raton",
        "ZIPCODE": "33431",
        "PHONE": "561-475-2919",
        "FAX": "561-475-2919",
        "LATITUDE": "26.394913737",
        "LONGITUDE": "-80.078585281",
        "EMAIL": "bocaraton@tlechildcare.com",
        "URL": "https://thelearningexperience.com/our-centers/fl/boca-raton/boca-raton",
        "ACTIVE": "1",
        "isComingSoon": false,
        "isNowEnrolling": true,
        "isJustOpened": true,
        "calendar_id": "864573",
        "distance": "2.089387085832922"
      },
      "Testimonials": null,
      "Center": {
        "ROWID": "261",
        "NAME": "Boca Raton",
        "ADDRESS": "331 E Yamato Rd",
        "STATE": "FL",
        "CITY": "Boca Raton",
        "ZIPCODE": "33431",
        "PHONE": "561-475-2919",
        "FAX": "561-475-2919",
        "LATITUDE": "26.394913737",
        "LONGITUDE": "-80.078585281",
        "EMAIL": "bocaraton@tlechildcare.com",
        "URL": "https://thelearningexperience.com/our-centers/fl/boca-raton/boca-raton",
        "ACTIVE": "1",
        "isComingSoon": false,
        "isNowEnrolling": true,
        "isJustOpened": true,
        "calendar_id": "864573",
        "distance": "2.089387085832922"
      }
    },
    {
      "LocationPage": {
        "ROWID": "151",
        "NAME": "Boynton Beach",
        "ADDRESS": "10160 Lyons Rd.",
        "STATE": "FL",
        "CITY": "Boynton Beach",
        "ZIPCODE": "33473",
        "PHONE": "561-279-6352",
        "FAX": "561-279-6352",
        "LATITUDE": "26.525465400",
        "LONGITUDE": "-80.187829400",
        "EMAIL": "boyntonbeach@tlechildcare.com",
        "URL": "https://thelearningexperience.com/our-centers/fl/boynton-beach/boynton-beach",
        "ACTIVE": "1",
        "isComingSoon": false,
        "isNowEnrolling": false,
        "isJustOpened": false,
        "calendar_id": "898813",
        "distance": "9.923425555391123"
      },
      "Testimonials": null,
      "Center": {
        "ROWID": "151",
        "NAME": "Boynton Beach",
        "ADDRESS": "10160 Lyons Rd.",
        "STATE": "FL",
        "CITY": "Boynton Beach",
        "ZIPCODE": "33473",
        "PHONE": "561-279-6352",
        "FAX": "561-279-6352",
        "LATITUDE": "26.525465400",
        "LONGITUDE": "-80.187829400",
        "EMAIL": "boyntonbeach@tlechildcare.com",
        "URL": "https://thelearningexperience.com/our-centers/fl/boynton-beach/boynton-beach",
        "ACTIVE": "1",
        "isComingSoon": false,
        "isNowEnrolling": false,
        "isJustOpened": false,
        "calendar_id": "898813",
        "distance": "9.923425555391123"
      }
    },
    {
      "LocationPage": {
        "ROWID": "152",
        "NAME": "Coral Springs",
        "ADDRESS": "4161 Turtle Creek Drive",
        "STATE": "FL",
        "CITY": "Coral Springs",
        "ZIPCODE": "33067",
        "PHONE": "954-398-5602",
        "FAX": "954-398-5602",
        "LATITUDE": "26.277820300",
        "LONGITUDE": "-80.205908800",
        "EMAIL": "coralsprings@tlechildcare.com",
        "URL": "https://thelearningexperience.com/our-centers/fl/coral-springs/coral-springs",
        "ACTIVE": "1",
        "isComingSoon": false,
        "isNowEnrolling": true,
        "isJustOpened": false,
        "calendar_id": "864577",
        "distance": "10.18608004722644"
      },
      "Testimonials": null,
      "Center": {
        "ROWID": "152",
        "NAME": "Coral Springs",
        "ADDRESS": "4161 Turtle Creek Drive",
        "STATE": "FL",
        "CITY": "Coral Springs",
        "ZIPCODE": "33067",
        "PHONE": "954-398-5602",
        "FAX": "954-398-5602",
        "LATITUDE": "26.277820300",
        "LONGITUDE": "-80.205908800",
        "EMAIL": "coralsprings@tlechildcare.com",
        "URL": "https://thelearningexperience.com/our-centers/fl/coral-springs/coral-springs",
        "ACTIVE": "1",
        "isComingSoon": false,
        "isNowEnrolling": true,
        "isJustOpened": false,
        "calendar_id": "864577",
        "distance": "10.18608004722644"
      }
    },
    {
      "LocationPage": {
        "ROWID": "234",
        "NAME": "Lake Worth",
        "ADDRESS": "8474 W. Lantana Rd.",
        "STATE": "FL",
        "CITY": "Lake Worth",
        "ZIPCODE": "33467",
        "PHONE": "561-757-7414",
        "FAX": "561-757-7414",
        "LATITUDE": "26.590532400",
        "LONGITUDE": "-80.180819500",
        "EMAIL": "lakeworth@tlechildcare.com",
        "URL": "https://thelearningexperience.com/our-centers/fl/lake-worth/lake-worth",
        "ACTIVE": "1",
        "isComingSoon": false,
        "isNowEnrolling": false,
        "isJustOpened": true,
        "calendar_id": "898861",
        "distance": "13.90859459860837"
      },
      "Testimonials": null,
      "Center": {
        "ROWID": "234",
        "NAME": "Lake Worth",
        "ADDRESS": "8474 W. Lantana Rd.",
        "STATE": "FL",
        "CITY": "Lake Worth",
        "ZIPCODE": "33467",
        "PHONE": "561-757-7414",
        "FAX": "561-757-7414",
        "LATITUDE": "26.590532400",
        "LONGITUDE": "-80.180819500",
        "EMAIL": "lakeworth@tlechildcare.com",
        "URL": "https://thelearningexperience.com/our-centers/fl/lake-worth/lake-worth",
        "ACTIVE": "1",
        "isComingSoon": false,
        "isNowEnrolling": false,
        "isJustOpened": true,
        "calendar_id": "898861",
        "distance": "13.90859459860837"
      }
    },
    {
      "LocationPage": {
        "ROWID": "322",
        "NAME": "Sunrise, FL",
        "ADDRESS": "NW 94th Ave. & Commercial Blvd.",
        "STATE": "FL",
        "CITY": "Fort Lauderdale",
        "ZIPCODE": "33351",
        "PHONE": "888-991-4222",
        "FAX": "888-991-4222",
        "LATITUDE": "26.193160000",
        "LONGITUDE": "-80.276864000",
        "EMAIL": "comingsoon@tlecorp.com",
        "URL": "https://thelearningexperience.com/our-centers/fl/fort-lauderdale/sunrise,-fl",
        "ACTIVE": "1",
        "isComingSoon": false,
        "isNowEnrolling": false,
        "isJustOpened": false,
        "calendar_id": null,
        "distance": "17.501519349703848"
      },
      "Testimonials": null,
      "Center": {
        "ROWID": "322",
        "NAME": "Sunrise, FL",
        "ADDRESS": "NW 94th Ave. & Commercial Blvd.",
        "STATE": "FL",
        "CITY": "Fort Lauderdale",
        "ZIPCODE": "33351",
        "PHONE": "888-991-4222",
        "FAX": "888-991-4222",
        "LATITUDE": "26.193160000",
        "LONGITUDE": "-80.276864000",
        "EMAIL": "comingsoon@tlecorp.com",
        "URL": "https://thelearningexperience.com/our-centers/fl/fort-lauderdale/sunrise,-fl",
        "ACTIVE": "1",
        "isComingSoon": false,
        "isNowEnrolling": false,
        "isJustOpened": false,
        "calendar_id": null,
        "distance": "17.501519349703848"
      }
    },
    {
      "LocationPage": {
        "ROWID": "267",
        "NAME": "West Palm Beach",
        "ADDRESS": "1969 Red Trail",
        "STATE": "FL",
        "CITY": "West Palm Beach",
        "ZIPCODE": "33409",
        "PHONE": "561-712-0071",
        "FAX": "561-712-0071",
        "LATITUDE": "26.705269384",
        "LONGITUDE": "-80.079858333",
        "EMAIL": "wpb@tlechildcare.com",
        "URL": "https://thelearningexperience.com/our-centers/fl/west-palm-beach/west-palm-beach",
        "ACTIVE": "1",
        "isComingSoon": false,
        "isNowEnrolling": true,
        "isJustOpened": true,
        "calendar_id": null,
        "distance": "21.263851684161086"
      },
      "Testimonials": null,
      "Center": {
        "ROWID": "267",
        "NAME": "West Palm Beach",
        "ADDRESS": "1969 Red Trail",
        "STATE": "FL",
        "CITY": "West Palm Beach",
        "ZIPCODE": "33409",
        "PHONE": "561-712-0071",
        "FAX": "561-712-0071",
        "LATITUDE": "26.705269384",
        "LONGITUDE": "-80.079858333",
        "EMAIL": "wpb@tlechildcare.com",
        "URL": "https://thelearningexperience.com/our-centers/fl/west-palm-beach/west-palm-beach",
        "ACTIVE": "1",
        "isComingSoon": false,
        "isNowEnrolling": true,
        "isJustOpened": true,
        "calendar_id": null,
        "distance": "21.263851684161086"
      }
    }
  ],
  "options": {
    "latitude": 26.3988832,
    "longitude": -80.1120511,
    "radius": 25,
    "update_cookie": true
  }
}
